{"type": "FeatureCollection", "features": [{"type": "Feature", "geometry": {"type": "Point", "coordinates": [96.351028, 18.506214]}, "properties": {"name": "PHYU", "alt_name": "Phyu Chaung", "type": "HP", "status": "E", "status2": "E", "gen_bus_id": 18, "conn_to": "Kun", "INC": "YES", "index": 1}}, {"type": "Feature", "geometry": {"type": "Point", "coordinates": [97.287, 19.648]}, "properties": {"name": "BALUCHAUNG (1)", "alt_name": "Baluchaung 1", "type": "HP", "status": "E", "status2": "E", "gen_bus_id": 17, "conn_to": "Lawpita", "INC": "YES", "index": 2}}, {"type": "Feature", "geometry": {"type": "Point", "coordinates": [97.358, 19.557]}, "properties": {"name": "BALUCHAUNG (2)", "alt_name": "Baluchaung 2", "type": "HP", "status": "E", "status2": "E", "gen_bus_id": 17, "conn_to": "Lawpita", "INC": "YES", "index": 3}}, {"type": "Feature", "geometry": {"type": "Point", "coordinates": [97.397, 19.546]}, "properties": {"name": "BALUCHAUNG (3)", "alt_name": "Baluchaung 3", "type": "HP", "status": "E", "status2": "E", "gen_bus_id": 17, "conn_to": "Lawpita", "INC": "YES", "index": 4}}, {"type": "Feature", "geometry": {"type": "Point", "coordinates": [96.474077, 21.675196]}, "properties": {"name": "YEYWA (LOWER)-1", "alt_name": "Yeywa", "type": "HP", "status": "E", "status2": "E", "gen_bus_id": 4, "conn_to": "Yeywa", "INC": "YES", "index": 5}}, {"type": "Feature", "geometry": {"type": "Point", "coordinates": [96.474077, 21.675196]}, "properties": {"name": "YEYWA (LOWER)-2", "alt_name": "Yeywa", "type": "HP", "status": "E", "status2": "E", "gen_bus_id": 4, "conn_to": "Yeywa", "INC": "YES", "index": 6}}, {"type": "Feature", "geometry": {"type": "Point", "coordinates": [97.506, 23.698]}, "properties": {"name": "SHWELI (1)", "alt_name": "Shweli 1", "type": "HP", "status": "E", "status2": "E", "gen_bus_id": 2, "conn_to": "Shweli", "INC": "YES", "index": 7}}, {"type": "Feature", "geometry": {"type": "Point", "coordinates": [94.255325, 20.479942]}, "properties": {"name": "MONE", "alt_name": "Mone Chaung", "type": "HP", "status": "E", "status2": "E", "gen_bus_id": 13, "conn_to": "Mann", "INC": "YES", "index": 8}}, {"type": "Feature", "geometry": {"type": "Point", "coordinates": [96.321037, 21.160437]}, "properties": {"name": "KINDA", "alt_name": "Kinda", "type": "HP", "status": "E", "status2": "E", "gen_bus_id": 4, "conn_to": "Yeywa", "INC": "YES", "index": 9}}, {"type": "Feature", "geometry": {"type": "Point", "coordinates": [95.35833, 23.305918]}, "properties": {"name": "THAPHANZEIK", "alt_name": "Thaphanseik", "type": "HP", "status": "E", "status2": "E", "gen_bus_id": 30, "conn_to": "132kV-bus", "INC": "YES", "index": 10}}, {"type": "Feature", "geometry": {"type": "Point", "coordinates": [96.220825, 18.896717]}, "properties": {"name": "KABAUNG", "alt_name": "Kabaung", "type": "HP", "status": "E", "status2": "E", "gen_bus_id": 16, "conn_to": "Taungoo", "INC": "YES", "index": 11}}, {"type": "Feature", "geometry": {"type": "Point", "coordinates": [96.326937, 22.348646]}, "properties": {"name": "SEDAWGYI", "alt_name": "Sedawgyi", "type": "HP", "status": "E", "status2": "E", "gen_bus_id": 25, "conn_to": "Mandalay", "INC": "YES", "index": 12}}, {"type": "Feature", "geometry": {"type": "Point", "coordinates": [96.446152, 18.085211]}, "properties": {"name": "YENWE", "alt_name": "Yenwe", "type": "HP", "status": "E", "status2": "E", "gen_bus_id": 18, "conn_to": "Kun", "INC": "YES", "index": 13}}, {"type": "Feature", "geometry": {"type": "Point", "coordinates": [96.19898, 17.755818]}, "properties": {"name": "ZAUNGTU", "alt_name": "Zaungtu", "type": "HP", "status": "E", "status2": "E", "gen_bus_id": 21, "conn_to": "Kamanat", "INC": "YES", "index": 14}}, {"type": "Feature", "geometry": {"type": "Point", "coordinates": [96.90147, 21.3833]}, "properties": {"name": "ZAWGYI (1)", "alt_name": "Zawgyi I", "type": "HP", "status": "E", "status2": "E", "gen_bus_id": 4, "conn_to": "Yeywa", "INC": "YES", "index": 15}}, {"type": "Feature", "geometry": {"type": "Point", "coordinates": [96.8726, 21.5648]}, "properties": {"name": "ZAWGYI (2)", "alt_name": "Zawgyi II", "type": "HP", "status": "E", "status2": "E", "gen_bus_id": 4, "conn_to": "Yeywa", "INC": "YES", "index": 16}}, {"type": "Feature", "geometry": {"type": "Point", "coordinates": [98.29305, 20.598345]}, "properties": {"name": "Kyeng Tawng (KENGTAWNG)", "alt_name": "Keng Tawng", "type": "HP", "status": "E", "status2": "E", "gen_bus_id": 38, "conn_to": "Namsang", "INC": "YES", "index": 17}}, {"type": "Feature", "geometry": {"type": "Point", "coordinates": [96.935001, 17.970227]}, "properties": {"name": "SHWEKYIN", "alt_name": "Shwegyin", "type": "HP", "status": "E", "status2": "E", "gen_bus_id": 19, "conn_to": "Shwekyin", "INC": "YES", "index": 18}}, {"type": "Feature", "geometry": {"type": "Point", "coordinates": [96.363854, 18.420367]}, "properties": {"name": "Kun (Kune or Kunchaung)", "alt_name": "Kun Chaung", "type": "HP", "status": "E", "status2": "E", "gen_bus_id": 18, "conn_to": "Kun", "INC": "YES", "index": 19}}, {"type": "Feature", "geometry": {"type": "Point", "coordinates": [94.416, 20.331]}, "properties": {"name": "KYEEON KYEEWA", "alt_name": "Kyee Ohn Kyee Wa", "type": "HP", "status": "E", "status2": "E", "gen_bus_id": 13, "conn_to": "Mann", "INC": "YES", "index": 20}}, {"type": "Feature", "geometry": {"type": "Point", "coordinates": [96.619907, 18.914102]}, "properties": {"name": "THAUK-YE-KHAT (2)", "alt_name": "Thauk Ye Khat 2", "type": "HP", "status": "E", "status2": "E", "gen_bus_id": 16, "conn_to": "Taungoo", "INC": "YES", "index": 21}}, {"type": "Feature", "geometry": {"type": "Point", "coordinates": [96.450483, 19.7412]}, "properties": {"name": "NANCHO", "alt_name": "Nancho", "type": "HP", "status": "E", "status2": "E", "gen_bus_id": 5, "conn_to": "Naypyitaw", "INC": "YES", "index": 22}}, {"type": "Feature", "geometry": {"type": "Point", "coordinates": [96.335, 19.785]}, "properties": {"name": "PAUNGLAUNG  ", "alt_name": "Lower Paunglaung", "type": "HP", "status": "E", "status2": "E", "gen_bus_id": 5, "conn_to": "Naypyitaw", "INC": "YES", "index": 23}}, {"type": "Feature", "geometry": {"type": "Point", "coordinates": [96.598, 19.756]}, "properties": {"name": "UPPER PAUNGLAUNG", "alt_name": "Upper Paunglaung", "type": "HP", "status": "E", "status2": "E", "gen_bus_id": 5, "conn_to": "Naypyitaw", "INC": "YES", "index": 24}}, {"type": "Feature", "geometry": {"type": "Point", "coordinates": [96.39144, 21.46349]}, "properties": {"name": "MYOGYI", "alt_name": "Myogyi", "type": "HP", "status": "E", "status2": "E", "gen_bus_id": 4, "conn_to": "Yeywa", "INC": "YES", "index": 25}}, {"type": "Feature", "geometry": {"type": "Point", "coordinates": [94.036944, 21.992222]}, "properties": {"name": "MYITTHA", "alt_name": "Myittha", "type": "HP", "status": "E", "status2": "E", "gen_bus_id": 29, "conn_to": "Chaunguu", "INC": "YES", "index": 26}}, {"type": "Feature", "geometry": {"type": "Point", "coordinates": [96.781918, 20.484592]}, "properties": {"name": "Baluchaung (upper)", "alt_name": "Baluchaung (upper)", "type": "HP", "status": "P/C", "status2": "C", "gen_bus_id": 3, "conn_to": "Thapyewa", "INC": "YES", "index": 27}}, {"type": "Feature", "geometry": {"type": "Point", "coordinates": [96.848496, 18.255561]}, "properties": {"name": "Bawgata", "alt_name": "Bawgata", "type": "HP", "status": "P/C", "status2": "P", "gen_bus_id": 18, "conn_to": "Kun", "INC": "YES", "index": 28}}, {"type": "Feature", "geometry": {"type": "Point", "coordinates": [97.243546, 17.519723]}, "properties": {"name": "Belin", "alt_name": "Belin", "type": "HP", "status": "P/C", "status2": "P", "gen_bus_id": 23, "conn_to": "Thaton", "INC": "YES", "index": 29}}, {"type": "Feature", "geometry": {"type": "Point", "coordinates": [94.0818, 20.76609]}, "properties": {"name": "Buywa (upper)", "alt_name": "Buywa (upper)", "type": "HP", "status": "P/C", "status2": "P", "gen_bus_id": 13, "conn_to": "Mann", "INC": "YES", "index": 30}}, {"type": "Feature", "geometry": {"type": "Point", "coordinates": [94.150833, 20.658056]}, "properties": {"name": "Buywa", "alt_name": "Buywa", "type": "HP", "status": "P/C", "status2": "C", "gen_bus_id": 13, "conn_to": "Mann", "INC": "YES", "index": 31}}, {"type": "Feature", "geometry": {"type": "Point", "coordinates": [98.12572, 25.8905]}, "properties": {"name": "Chipwi", "alt_name": "Chipwi", "type": "HP", "status": "P/C", "status2": "P", "gen_bus_id": 35, "conn_to": "Chipwi", "INC": "YES", "index": 32}}, {"type": "Feature", "geometry": {"type": "Point", "coordinates": [97.4214, 24.36827]}, "properties": {"name": "Dapein 2", "alt_name": "Dapein 2", "type": "HP", "status": "P/C", "status2": "P", "gen_bus_id": 34, "conn_to": "Bhamo", "INC": "YES", "index": 33}}, {"type": "Feature", "geometry": {"type": "Point", "coordinates": [96.404455, 21.68723]}, "properties": {"name": "Deedoke", "alt_name": "Deedoke", "type": "HP", "status": "P/C", "status2": "P", "gen_bus_id": 4, "conn_to": "Yeywa", "INC": "YES", "index": 34}}, {"type": "Feature", "geometry": {"type": "Point", "coordinates": [97.907021, 25.511556]}, "properties": {"name": "Dum Ban", "alt_name": "Dum Ban", "type": "HP", "status": "P/C", "status2": "P", "gen_bus_id": 35, "conn_to": "Chipwi", "INC": "YES", "index": 35}}, {"type": "Feature", "geometry": {"type": "Point", "coordinates": [98.580461, 26.051936]}, "properties": {"name": "Gaw Lan", "alt_name": "Gaw Lan", "type": "HP", "status": "P/C", "status2": "P", "gen_bus_id": 35, "conn_to": "Chipwi", "INC": "YES", "index": 36}}, {"type": "Feature", "geometry": {"type": "Point", "coordinates": [97.399722, 19.211667]}, "properties": {"name": "Hawkham (upper) ", "alt_name": "Hawkham (upper)", "type": "HP", "status": "P/C", "status2": "P", "gen_bus_id": 17, "conn_to": "Lawpita", "INC": "YES", "index": 37}}, {"type": "Feature", "geometry": {"type": "Point", "coordinates": [100.720928, 21.341291]}, "properties": {"name": "He Kou", "alt_name": "He Kou", "type": "HP", "status": "P/C", "status2": "P", "gen_bus_id": 37, "conn_to": "Keng Tong", "INC": "YES", "index": 38}}, {"type": "Feature", "geometry": {"type": "Point", "coordinates": [98.429523, 26.023865]}, "properties": {"name": "Hkankawn", "alt_name": "Hkankawn", "type": "HP", "status": "P/C", "status2": "P", "gen_bus_id": 35, "conn_to": "Chipwi", "INC": "YES", "index": 39}}, {"type": "Feature", "geometry": {"type": "Point", "coordinates": [98.34309, 26.598389]}, "properties": {"name": "Pisa", "alt_name": "Pisa", "type": "HP", "status": "P/C", "status2": "P", "gen_bus_id": 36, "conn_to": "Pisa", "INC": "YES", "index": 40}}, {"type": "Feature", "geometry": {"type": "Point", "coordinates": [95.296955, 25.322227]}, "properties": {"name": "Tamanthi ", "alt_name": "Tamanthi", "type": "HP", "status": "P/C", "status2": "P", "gen_bus_id": 33, "conn_to": "Nabar", "INC": "YES", "index": 41}}, {"type": "Feature", "geometry": {"type": "Point", "coordinates": [97.747, 17.528]}, "properties": {"name": "Hutgyi", "alt_name": "Hutgyi", "type": "HP", "status": "P/C", "status2": "P", "gen_bus_id": 23, "conn_to": "Thaton", "INC": "YES", "index": 42}}, {"type": "Feature", "geometry": {"type": "Point", "coordinates": [98.184077, 20.74558]}, "properties": {"name": "Keng Tawng (upper)", "alt_name": "Keng Tawng (upper)", "type": "HP", "status": "P/C", "status2": "C", "gen_bus_id": 38, "conn_to": "Namsang", "INC": "YES", "index": 43}}, {"type": "Feature", "geometry": {"type": "Point", "coordinates": [99.500985, 21.617799]}, "properties": {"name": "Keng Tong", "alt_name": "Keng Tong", "type": "HP", "status": "P/C", "status2": "P", "gen_bus_id": 37, "conn_to": "Keng Tong", "INC": "YES", "index": 44}}, {"type": "Feature", "geometry": {"type": "Point", "coordinates": [100.5619, 21.3469]}, "properties": {"name": "Keng Yang", "alt_name": "Keng Yang", "type": "HP", "status": "P/C", "status2": "P", "gen_bus_id": 37, "conn_to": "Keng Tong", "INC": "YES", "index": 45}}, {"type": "Feature", "geometry": {"type": "Point", "coordinates": [98.376808, 26.849507]}, "properties": {"name": "Khaunglanphu", "alt_name": "Khaunglanphu", "type": "HP", "status": "P/C", "status2": "P", "gen_bus_id": 36, "conn_to": "Pisa", "INC": "YES", "index": 46}}, {"type": "Feature", "geometry": {"type": "Point", "coordinates": [98.611111, 23.531667]}, "properties": {"name": "KunLong", "alt_name": "KunLong", "type": "HP", "status": "P/C", "status2": "P", "gen_bus_id": 1, "conn_to": "Mansan", "INC": "YES", "index": 47}}, {"type": "Feature", "geometry": {"type": "Point", "coordinates": [98.277743, 26.043012]}, "properties": {"name": "Lawngdin", "alt_name": "Lawngdin", "type": "HP", "status": "P/C", "status2": "P", "gen_bus_id": 35, "conn_to": "Chipwi", "INC": "YES", "index": 48}}, {"type": "Feature", "geometry": {"type": "Point", "coordinates": [93.350503, 20.857443]}, "properties": {"name": "Lemro 1", "alt_name": "Lemro 1", "type": "HP", "status": "P/C", "status2": "P", "gen_bus_id": 12, "conn_to": "Ponnakyun", "INC": "YES", "index": 49}}, {"type": "Feature", "geometry": {"type": "Point", "coordinates": [97.77695, 26.491779]}, "properties": {"name": "Laza", "alt_name": "Laza", "type": "HP", "status": "P/C", "status2": "P", "gen_bus_id": 35, "conn_to": "Chipwi", "INC": "YES", "index": 50}}, {"type": "Feature", "geometry": {"type": "Point", "coordinates": [93.268689, 20.740347]}, "properties": {"name": "Lemro 2", "alt_name": "Lemro 2", "type": "HP", "status": "P/C", "status2": "P", "gen_bus_id": 12, "conn_to": "Ponnakyun", "INC": "YES", "index": 51}}, {"type": "Feature", "geometry": {"type": "Point", "coordinates": [97.408611, 19.555]}, "properties": {"name": "Nam Pawn (lower)", "alt_name": "Nam Pawn (lower)", "type": "HP", "status": "P/C", "status2": "P", "gen_bus_id": 17, "conn_to": "Lawpita", "INC": "YES", "index": 52}}, {"type": "Feature", "geometry": {"type": "Point", "coordinates": [98.65, 20.456389]}, "properties": {"name": "Mong Ton", "alt_name": "Mong Ton", "type": "HP", "status": "P/C", "status2": "P", "gen_bus_id": 38, "conn_to": "Namsang", "INC": "YES", "index": 53}}, {"type": "Feature", "geometry": {"type": "Point", "coordinates": [93.943248, 22.804356]}, "properties": {"name": "Manipur", "alt_name": "Manipur", "type": "HP", "status": "P/C", "status2": "P", "gen_bus_id": 29, "conn_to": "Chaunguu", "INC": "YES", "index": 54}}, {"type": "Feature", "geometry": {"type": "Point", "coordinates": [98.55727, 22.97469]}, "properties": {"name": "Mantong", "alt_name": "Mantong", "type": "HP", "status": "P/C", "status2": "P", "gen_bus_id": 1, "conn_to": "Mansan", "INC": "YES", "index": 55}}, {"type": "Feature", "geometry": {"type": "Point", "coordinates": [97.535, 25.715]}, "properties": {"name": "Myitsone", "alt_name": "Myitsone", "type": "HP", "status": "P/C", "status2": "P", "gen_bus_id": 35, "conn_to": "Chipwi", "INC": "YES", "index": 56}}, {"type": "Feature", "geometry": {"type": "Point", "coordinates": [98.950044, 21.733821]}, "properties": {"name": "Nam Hka", "alt_name": "Nam Hka", "type": "HP", "status": "P/C", "status2": "P", "gen_bus_id": 37, "conn_to": "Keng Tong", "INC": "YES", "index": 57}}, {"type": "Feature", "geometry": {"type": "Point", "coordinates": [97.124079, 22.560266]}, "properties": {"name": "Nam Hsim", "alt_name": "Nam Hsim", "type": "HP", "status": "P/C", "status2": "P", "gen_bus_id": 1, "conn_to": "Mansan", "INC": "YES", "index": 58}}, {"type": "Feature", "geometry": {"type": "Point", "coordinates": [97.248615, 22.155565]}, "properties": {"name": "Nam Lang", "alt_name": "Nam Lang", "type": "HP", "status": "P/C", "status2": "P", "gen_bus_id": 25, "conn_to": "Mandalay", "INC": "YES", "index": 59}}, {"type": "Feature", "geometry": {"type": "Point", "coordinates": [97.811427, 25.369858]}, "properties": {"name": "Nam Li", "alt_name": "Nam Li", "type": "HP", "status": "P/C", "status2": "P", "gen_bus_id": 35, "conn_to": "Chipwi", "INC": "YES", "index": 60}}, {"type": "Feature", "geometry": {"type": "Point", "coordinates": [100.241026, 20.742516]}, "properties": {"name": "Nam Lin", "alt_name": "Nam Lin", "type": "HP", "status": "P/C", "status2": "P", "gen_bus_id": 37, "conn_to": "Keng Tong", "INC": "YES", "index": 61}}, {"type": "Feature", "geometry": {"type": "Point", "coordinates": [97.911001, 23.944341]}, "properties": {"name": "Nam Paw", "alt_name": "Nam Paw", "type": "HP", "status": "P/C", "status2": "P", "gen_bus_id": 2, "conn_to": "Shweli", "INC": "YES", "index": 62}}, {"type": "Feature", "geometry": {"type": "Point", "coordinates": [97.437368, 20.062121]}, "properties": {"name": "Nam Pawn (upper)  ", "alt_name": "Nam Pawn (upper)", "type": "HP", "status": "P/C", "status2": "P", "gen_bus_id": 17, "conn_to": "Lawpita", "INC": "YES", "index": 63}}, {"type": "Feature", "geometry": {"type": "Point", "coordinates": [97.713906, 25.090722]}, "properties": {"name": "Nam Tabak I", "alt_name": "Nam Tabak I", "type": "HP", "status": "P/C", "status2": "P", "gen_bus_id": 34, "conn_to": "Bhamo", "INC": "YES", "index": 64}}, {"type": "Feature", "geometry": {"type": "Point", "coordinates": [97.319365, 22.720943]}, "properties": {"name": "Nam Tu", "alt_name": "Nam Tu", "type": "HP", "status": "P/C", "status2": "P", "gen_bus_id": 1, "conn_to": "Mansan", "INC": "YES", "index": 65}}, {"type": "Feature", "geometry": {"type": "Point", "coordinates": [98.499151, 22.987464]}, "properties": {"name": "Naopha", "alt_name": "Naopha", "type": "HP", "status": "P/C", "status2": "P", "gen_bus_id": 1, "conn_to": "Mansan", "INC": "YES", "index": 66}}, {"type": "Feature", "geometry": {"type": "Point", "coordinates": [96.508, 19.86]}, "properties": {"name": "Paung Laung (middle)", "alt_name": "Paung Laung (middle)", "type": "HP", "status": "P/C", "status2": "P", "gen_bus_id": 5, "conn_to": "Naypyitaw", "INC": "YES", "index": 67}}, {"type": "Feature", "geometry": {"type": "Point", "coordinates": [97.456152, 20.209251]}, "properties": {"name": "Hpak Nam", "alt_name": "Hpak Nam", "type": "HP", "status": "P/C", "status2": "P", "gen_bus_id": 17, "conn_to": "Lawpita", "INC": "YES", "index": 68}}, {"type": "Feature", "geometry": {"type": "Point", "coordinates": [97.43497, 20.118443]}, "properties": {"name": "Hpi Hseng", "alt_name": "Hpi Hseng", "type": "HP", "status": "P/C", "status2": "P", "gen_bus_id": 17, "conn_to": "Lawpita", "INC": "YES", "index": 69}}, {"type": "Feature", "geometry": {"type": "Point", "coordinates": [98.090192, 27.525941]}, "properties": {"name": "Renan", "alt_name": "Renan", "type": "HP", "status": "P/C", "status2": "P", "gen_bus_id": 36, "conn_to": "Pisa", "INC": "YES", "index": 70}}, {"type": "Feature", "geometry": {"type": "Point", "coordinates": [96.20626, 22.74764]}, "properties": {"name": "Sedawgyi (upper)", "alt_name": "Sedawgyi (upper)", "type": "HP", "status": "P/C", "status2": "P", "gen_bus_id": 25, "conn_to": "Mandalay", "INC": "YES", "index": 71}}, {"type": "Feature", "geometry": {"type": "Point", "coordinates": [97.31235, 23.6531]}, "properties": {"name": "Shweli 2", "alt_name": "Shweli 2", "type": "HP", "status": "P/C", "status2": "P", "gen_bus_id": 2, "conn_to": "Shweli", "INC": "YES", "index": 72}}, {"type": "Feature", "geometry": {"type": "Point", "coordinates": [96.769, 23.315]}, "properties": {"name": "Shweli 3", "alt_name": "Shweli 3", "type": "HP", "status": "P/C", "status2": "C", "gen_bus_id": 2, "conn_to": "Shweli", "INC": "YES", "index": 73}}, {"type": "Feature", "geometry": {"type": "Point", "coordinates": [100.176054, 21.359543]}, "properties": {"name": "Suo Lwe", "alt_name": "Suo Lwe", "type": "HP", "status": "P/C", "status2": "P", "gen_bus_id": 37, "conn_to": "Keng Tong", "INC": "YES", "index": 74}}, {"type": "Feature", "geometry": {"type": "Point", "coordinates": [98.94, 12.777]}, "properties": {"name": "Taninthayi", "alt_name": "Taninthayi", "type": "HP", "status": "P/C", "status2": "P", "gen_bus_id": 32, "conn_to": "Tanintharyi", "INC": "YES", "index": 75}}, {"type": "Feature", "geometry": {"type": "Point", "coordinates": [94.381, 18.64]}, "properties": {"name": "Thahtay", "alt_name": "Thahtay", "type": "HP", "status": "P/C", "status2": "C", "gen_bus_id": 9, "conn_to": "Taungup", "INC": "YES", "index": 76}}, {"type": "Feature", "geometry": {"type": "Point", "coordinates": [98.360249, 25.963646]}, "properties": {"name": "Tongxinqiao", "alt_name": "Tongxinqiao", "type": "HP", "status": "P/C", "status2": "P", "gen_bus_id": 35, "conn_to": "Chipwi", "INC": "YES", "index": 77}}, {"type": "Feature", "geometry": {"type": "Point", "coordinates": [98.292511, 26.403585]}, "properties": {"name": "Wutsok", "alt_name": "Wutsok", "type": "HP", "status": "P/C", "status2": "P", "gen_bus_id": 36, "conn_to": "Pisa", "INC": "YES", "index": 78}}, {"type": "Feature", "geometry": {"type": "Point", "coordinates": [96.87313, 21.96024]}, "properties": {"name": "Yeywa (middle)", "alt_name": "Yeywa (middle)", "type": "HP", "status": "P/C", "status2": "P", "gen_bus_id": 4, "conn_to": "Yeywa", "INC": "YES", "index": 79}}, {"type": "Feature", "geometry": {"type": "Point", "coordinates": [97.046741, 22.254093]}, "properties": {"name": "Yeywa (upper)", "alt_name": "Yeywa (upper)", "type": "HP", "status": "P/C", "status2": "C", "gen_bus_id": 25, "conn_to": "Mandalay", "INC": "YES", "index": 80}}, {"type": "Feature", "geometry": {"type": "Point", "coordinates": [97.521257, 19.131059]}, "properties": {"name": "Ywathit", "alt_name": "Ywathit", "type": "HP", "status": "P/C", "status2": "P", "gen_bus_id": 17, "conn_to": "Lawpita", "INC": "YES", "index": 81}}, {"type": "Feature", "geometry": {"type": "Point", "coordinates": [97.650627, 25.119755]}, "properties": {"name": "Nam Tabak II", "alt_name": "Nam Tabak II", "type": "HP", "status": "P/C", "status2": "P", "gen_bus_id": 34, "conn_to": "Bhamo", "INC": "YES", "index": 82}}, {"type": "Feature", "geometry": {"type": "Point", "coordinates": [99.375, 20.662222]}, "properties": {"name": "Mong Hsat", "alt_name": "Mong Hsat", "type": "HP", "status": "P/C", "status2": "P", "gen_bus_id": 37, "conn_to": "Keng Tong", "INC": "YES", "index": 83}}, {"type": "Feature", "geometry": {"type": "Point", "coordinates": [96.52987, 26.309687]}, "properties": {"name": "Tawog Hka", "alt_name": "Tawog Hka", "type": "HP", "status": "P/C", "status2": "I", "gen_bus_id": 33, "conn_to": "Nabar", "INC": "YES", "index": 84}}, {"type": "Feature", "geometry": {"type": "Point", "coordinates": [96.46829, 26.718029]}, "properties": {"name": "Ta Rung Hka", "alt_name": "Ta Rung Hka", "type": "HP", "status": "P/C", "status2": "I", "gen_bus_id": 33, "conn_to": "Nabar", "INC": "YES", "index": 85}}, {"type": "Feature", "geometry": {"type": "Point", "coordinates": [96.95008, 26.294175]}, "properties": {"name": "Ta Nai Hka", "alt_name": "Ta Nai Hka", "type": "HP", "status": "P/C", "status2": "I", "gen_bus_id": 33, "conn_to": "Nabar", "INC": "YES", "index": 86}}, {"type": "Feature", "geometry": {"type": "Point", "coordinates": [96.719624, 18.938587]}, "properties": {"name": "Thauk Ye Khat 1", "alt_name": "Thauk Ye Khat 1", "type": "HP", "status": "P/C", "status2": "I", "gen_bus_id": 16, "conn_to": "Taungoo", "INC": "YES", "index": 87}}, {"type": "Feature", "geometry": {"type": "Point", "coordinates": [97.34081, 18.29496]}, "properties": {"name": "Yunzalin", "alt_name": "Yunzalin", "type": "HP", "status": "P/C", "status2": "I", "gen_bus_id": 18, "conn_to": "Kun", "INC": "YES", "index": 88}}, {"type": "Feature", "geometry": {"type": "Point", "coordinates": [98.348758, 16.305021]}, "properties": {"name": "Lam Pha", "alt_name": "Lam Pha", "type": "HP", "status": "P/C", "status2": "I", "gen_bus_id": 24, "conn_to": "Mawlamyaing", "INC": "YES", "index": 89}}, {"type": "Feature", "geometry": {"type": "Point", "coordinates": [93.073495, 21.334187]}, "properties": {"name": "Mi Chaung", "alt_name": "Mi Chaung", "type": "HP", "status": "P/C", "status2": "I", "gen_bus_id": 12, "conn_to": "Ponnakyun", "INC": "YES", "index": 90}}, {"type": "Feature", "geometry": {"type": "Point", "coordinates": [95.294431, 24.865948]}, "properties": {"name": "U Yu Chaung", "alt_name": "U Yu Chaung", "type": "HP", "status": "P/C", "status2": "I", "gen_bus_id": 33, "conn_to": "Nabar", "INC": "YES", "index": 91}}, {"type": "Feature", "geometry": {"type": "Point", "coordinates": [99.331205, 11.769949]}, "properties": {"name": "Thein Kun Chaung", "alt_name": "Thein Kun Chaung", "type": "HP", "status": "P/C", "status2": "I", "gen_bus_id": 32, "conn_to": "Tanintharyi", "INC": "YES", "index": 92}}, {"type": "Feature", "geometry": {"type": "Point", "coordinates": [99.227161, 12.132896]}, "properties": {"name": "Tha Gyet Chaung", "alt_name": "Tha Gyet Chaung", "type": "HP", "status": "P/C", "status2": "I", "gen_bus_id": 32, "conn_to": "Tanintharyi", "INC": "YES", "index": 93}}, {"type": "Feature", "geometry": {"type": "Point", "coordinates": [98.858324, 10.775209]}, "properties": {"name": "Glohong Kra", "alt_name": "Glohong Kra", "type": "HP", "status": "P/C", "status2": "I", "gen_bus_id": 32, "conn_to": "Tanintharyi", "INC": "YES", "index": 94}}, {"type": "Feature", "geometry": {"type": "Point", "coordinates": [97.915769, 15.682011]}, "properties": {"name": "Myet Taw Chaung", "alt_name": "Myet Taw Chaung", "type": "HP", "status": "P/C", "status2": "I", "gen_bus_id": 24, "conn_to": "Mawlamyaing", "INC": "YES", "index": 95}}, {"type": "Feature", "geometry": {"type": "Point", "coordinates": [94.712866, 19.37089]}, "properties": {"name": "Mindon", "alt_name": "Mindon", "type": "HP", "status": "P/C", "status2": "I", "gen_bus_id": 8, "conn_to": "Oakshitpin", "INC": "YES", "index": 96}}, {"type": "Feature", "geometry": {"type": "Point", "coordinates": [94.493902, 18.386144]}, "properties": {"name": "Than Dwe", "alt_name": "Than Dwe", "type": "HP", "status": "P/C", "status2": "I", "gen_bus_id": 9, "conn_to": "Taungup", "INC": "YES", "index": 97}}, {"type": "Feature", "geometry": {"type": "Point", "coordinates": [94.576508, 17.950012]}, "properties": {"name": "Kyein Ta Li", "alt_name": "Kyein Ta Li", "type": "HP", "status": "P/C", "status2": "I", "gen_bus_id": 9, "conn_to": "Taungup", "INC": "YES", "index": 98}}, {"type": "Feature", "geometry": {"type": "Point", "coordinates": [99.34667, 20.196337]}, "properties": {"name": "Nam Hkok", "alt_name": "Nam Hkok", "type": "HP", "status": "P/C", "status2": "I", "gen_bus_id": 38, "conn_to": "Namsang", "INC": "YES", "index": 99}}, {"type": "Feature", "geometry": {"type": "Point", "coordinates": [92.652188, 20.893779]}, "properties": {"name": "Saing Din", "alt_name": "Saing Din", "type": "HP", "status": "P/C", "status2": "I", "gen_bus_id": 12, "conn_to": "Ponnakyun", "INC": "YES", "index": 100}}, {"type": "Feature", "geometry": {"type": "Point", "coordinates": [98.98167, 12.829406]}, "properties": {"name": "Sar Ra Wa Chaung", "alt_name": "Sar Ra Wa Chaung", "type": "HP", "status": "P/C", "status2": "I", "gen_bus_id": 32, "conn_to": "Tanintharyi", "INC": "YES", "index": 101}}, {"type": "Feature", "geometry": {"type": "Point", "coordinates": [100.325821, 21.39699]}, "properties": {"name": "Mongwa", "alt_name": "Mongwa", "type": "HP", "status": "P/C", "status2": "E", "gen_bus_id": 37, "conn_to": "Keng Tong", "INC": "YES", "index": 102}}, {"type": "Feature", "geometry": {"type": "Point", "coordinates": [98.184039, 25.806073]}, "properties": {"name": "Chipwi Nge", "alt_name": "Chipwi Nge", "type": "HP", "status": "P/C", "status2": "E", "gen_bus_id": 35, "conn_to": "Chipwi", "INC": "YES", "index": 103}}, {"type": "Feature", "geometry": {"type": "Point", "coordinates": [97.6135, 24.98458]}, "properties": {"name": "Mali", "alt_name": "Mali", "type": "HP", "status": "P/C", "status2": "E", "gen_bus_id": 34, "conn_to": "Bhamo", "INC": "YES", "index": 104}}, {"type": "Feature", "geometry": {"type": "Point", "coordinates": [97.525448, 24.421451]}, "properties": {"name": "Dapein 1", "alt_name": "Dapein 1", "type": "HP", "status": "E", "status2": "E", "gen_bus_id": 34, "conn_to": "Bhamo", "INC": "YES", "index": 105}}, {"type": "Feature", "geometry": {"type": "Point", "coordinates": [94.417307, 21.031832]}, "properties": {"name": "KYUNCHAUNG", "alt_name": "", "type": "OCGT", "status": "E", "status2": "", "gen_bus_id": 30, "conn_to": "132kV-bus", "INC": "YES", "index": 106}}, {"type": "Feature", "geometry": {"type": "Point", "coordinates": [94.839861, 20.177895]}, "properties": {"name": "MANN", "alt_name": "", "type": "OCGT", "status": "E", "status2": "", "gen_bus_id": 30, "conn_to": "132kV-bus", "INC": "YES", "index": 107}}, {"type": "Feature", "geometry": {"type": "Point", "coordinates": [95.230278, 18.727333]}, "properties": {"name": "SHEWTAUNG", "alt_name": "", "type": "OCGT", "status": "E", "status2": "", "gen_bus_id": 7, "conn_to": "Shwedaung", "INC": "YES", "index": 108}}, {"type": "Feature", "geometry": {"type": "Point", "coordinates": [97.416938, 16.958556]}, "properties": {"name": "Thaton A", "alt_name": "", "type": "OCGT", "status": "E", "status2": "", "gen_bus_id": 23, "conn_to": "Thaton", "INC": "YES", "index": 109}}, {"type": "Feature", "geometry": {"type": "Point", "coordinates": [97.399618, 16.958556]}, "properties": {"name": "Thaton B", "alt_name": "", "type": "OCGT", "status": "E", "status2": "", "gen_bus_id": 23, "conn_to": "Thaton", "INC": "YES", "index": 110}}, {"type": "Feature", "geometry": {"type": "Point", "coordinates": [97.40827, 16.973556]}, "properties": {"name": "Thaton (WB)", "alt_name": "", "type": "OCGT", "status": "E", "status2": "", "gen_bus_id": 23, "conn_to": "Thaton", "INC": "YES", "index": 111}}, {"type": "Feature", "geometry": {"type": "Point", "coordinates": [95.400577, 21.427306]}, "properties": {"name": "Myingyan (V Power 1)", "alt_name": "", "type": "OCGT", "status": "E", "status2": "", "gen_bus_id": 3, "conn_to": "Thapyewa", "INC": "YES", "index": 112}}, {"type": "Feature", "geometry": {"type": "Point", "coordinates": [95.383257, 21.427306]}, "properties": {"name": "Myingyan (V Power 2)", "alt_name": "", "type": "OCGT", "status": "E", "status2": "", "gen_bus_id": 3, "conn_to": "Thapyewa", "INC": "YES", "index": 113}}, {"type": "Feature", "geometry": {"type": "Point", "coordinates": [95.391917, 21.442306]}, "properties": {"name": "Myingyan (Sembcrop)", "alt_name": "", "type": "OCGT", "status": "E", "status2": "", "gen_bus_id": 3, "conn_to": "Thapyewa", "INC": "YES", "index": 114}}, {"type": "Feature", "geometry": {"type": "Point", "coordinates": [95.935361, 23.791639]}, "properties": {"name": "Power Gen (Kyaukse) -1", "alt_name": "", "type": "OCGT", "status": "E", "status2": "", "gen_bus_id": 30, "conn_to": "132kV-bus", "INC": "YES", "index": 115}}, {"type": "Feature", "geometry": {"type": "Point", "coordinates": [95.935361, 23.811639]}, "properties": {"name": "Power Gen (Kyaukse) -2", "alt_name": "", "type": "OCGT", "status": "E", "status2": "", "gen_bus_id": 30, "conn_to": "132kV-bus", "INC": "YES", "index": 116}}, {"type": "Feature", "geometry": {"type": "Point", "coordinates": [97.667417, 16.461806]}, "properties": {"name": "Mawlamying (ML) A", "alt_name": "", "type": "OCGT", "status": "E", "status2": "", "gen_bus_id": 24, "conn_to": "Mawlamyaing", "INC": "YES", "index": 117}}, {"type": "Feature", "geometry": {"type": "Point", "coordinates": [97.667417, 16.481806]}, "properties": {"name": "Mawlamying (ML) B", "alt_name": "", "type": "OCGT", "status": "E", "status2": "", "gen_bus_id": 24, "conn_to": "Mawlamyaing", "INC": "YES", "index": 118}}, {"type": "Feature", "geometry": {"type": "Point", "coordinates": [93.496778, 19.392361]}, "properties": {"name": "Kyauk Phyu (V Power 1)", "alt_name": "", "type": "OCGT", "status": "E", "status2": "", "gen_bus_id": 10, "conn_to": "Kyaukphyu", "INC": "YES", "index": 119}}, {"type": "Feature", "geometry": {"type": "Point", "coordinates": [93.496778, 19.412361]}, "properties": {"name": "Kyauk Phyu (V Power 2)", "alt_name": "", "type": "OCGT", "status": "E", "status2": "", "gen_bus_id": 10, "conn_to": "Kyaukphyu", "INC": "YES", "index": 120}}, {"type": "Feature", "geometry": {"type": "Point", "coordinates": [96.131354, 16.976583]}, "properties": {"name": "Hlawga", "alt_name": "", "type": "OCGT", "status": "E", "status2": "", "gen_bus_id": 20, "conn_to": "Yangon", "INC": "YES", "index": 121}}, {"type": "Feature", "geometry": {"type": "Point", "coordinates": [96.114034, 16.976583]}, "properties": {"name": "Hlawga (MCP-1)", "alt_name": "", "type": "OCGT", "status": "E", "status2": "", "gen_bus_id": 20, "conn_to": "Yangon", "INC": "YES", "index": 122}}, {"type": "Feature", "geometry": {"type": "Point", "coordinates": [96.122694, 16.991583]}, "properties": {"name": "Hlawga (MCP-2)", "alt_name": "", "type": "OCGT", "status": "E", "status2": "", "gen_bus_id": 20, "conn_to": "Yangon", "INC": "YES", "index": 123}}, {"type": "Feature", "geometry": {"type": "Point", "coordinates": [96.153648, 16.781166]}, "properties": {"name": "Ywama A", "alt_name": "", "type": "OCGT", "status": "E", "status2": "", "gen_bus_id": 26, "conn_to": "Hlaingthaya", "INC": "YES", "index": 124}}, {"type": "Feature", "geometry": {"type": "Point", "coordinates": [96.143648, 16.771166]}, "properties": {"name": "Ywama B", "alt_name": "", "type": "OCGT", "status": "E", "status2": "", "gen_bus_id": 26, "conn_to": "Hlaingthaya", "INC": "YES", "index": 125}}, {"type": "Feature", "geometry": {"type": "Point", "coordinates": [96.133648, 16.781166]}, "properties": {"name": "Ywama (EGAT)", "alt_name": "", "type": "OCGT", "status": "E", "status2": "", "gen_bus_id": 26, "conn_to": "Hlaingthaya", "INC": "YES", "index": 126}}, {"type": "Feature", "geometry": {"type": "Point", "coordinates": [96.143648, 16.791166]}, "properties": {"name": "Ywama (UPP)", "alt_name": "", "type": "OCGT", "status": "E", "status2": "", "gen_bus_id": 26, "conn_to": "Hlaingthaya", "INC": "YES", "index": 127}}, {"type": "Feature", "geometry": {"type": "Point", "coordinates": [96.141528, 16.778556]}, "properties": {"name": "Ahlone", "alt_name": "", "type": "OCGT", "status": "E", "status2": "", "gen_bus_id": 26, "conn_to": "Hlaingthaya", "INC": "YES", "index": 128}}, {"type": "Feature", "geometry": {"type": "Point", "coordinates": [96.131528, 16.768556]}, "properties": {"name": "Ahlone (Toyo Thai)", "alt_name": "", "type": "OCGT", "status": "E", "status2": "", "gen_bus_id": 26, "conn_to": "Hlaingthaya", "INC": "YES", "index": 129}}, {"type": "Feature", "geometry": {"type": "Point", "coordinates": [96.234567, 16.815396]}, "properties": {"name": "Thaketa", "alt_name": "", "type": "OCGT", "status": "E", "status2": "", "gen_bus_id": 20, "conn_to": "Yangon", "INC": "YES", "index": 130}}, {"type": "Feature", "geometry": {"type": "Point", "coordinates": [96.230934, 16.804216]}, "properties": {"name": "Thaketa (Max)", "alt_name": "", "type": "OCGT", "status": "E", "status2": "", "gen_bus_id": 20, "conn_to": "Yangon", "INC": "YES", "index": 131}}, {"type": "Feature", "geometry": {"type": "Point", "coordinates": [96.219178, 16.804216]}, "properties": {"name": "Thaketa (U Energy)", "alt_name": "", "type": "OCGT", "status": "E", "status2": "", "gen_bus_id": 20, "conn_to": "Yangon", "INC": "YES", "index": 132}}, {"type": "Feature", "geometry": {"type": "Point", "coordinates": [96.266194, 16.66425]}, "properties": {"name": "Thilawa", "alt_name": "", "type": "OCGT", "status": "E", "status2": "", "gen_bus_id": 20, "conn_to": "Yangon", "INC": "YES", "index": 133}}, {"type": "Feature", "geometry": {"type": "Point", "coordinates": [96.122694, 16.981583]}, "properties": {"name": "Hlawga (STEAM TURBINE)", "alt_name": "", "type": "CCGT", "status": "E", "status2": "", "gen_bus_id": 20, "conn_to": "Yangon", "INC": "YES", "index": 134}}, {"type": "Feature", "geometry": {"type": "Point", "coordinates": [96.143648, 16.781166]}, "properties": {"name": "Ywama", "alt_name": "", "type": "CCGT", "status": "E", "status2": "", "gen_bus_id": 26, "conn_to": "Hlaingthaya", "INC": "YES", "index": 135}}, {"type": "Feature", "geometry": {"type": "Point", "coordinates": [96.121528, 16.778556]}, "properties": {"name": "Ahlone (STEAM TURBINE)", "alt_name": "", "type": "CCGT", "status": "E", "status2": "", "gen_bus_id": 26, "conn_to": "Hlaingthaya", "INC": "YES", "index": 136}}, {"type": "Feature", "geometry": {"type": "Point", "coordinates": [96.131528, 16.788556]}, "properties": {"name": "Ahlone (Toyo Thai) (STEAM TURBINE)", "alt_name": "", "type": "CCGT", "status": "E", "status2": "", "gen_bus_id": 26, "conn_to": "Hlaingthaya", "INC": "YES", "index": 137}}, {"type": "Feature", "geometry": {"type": "Point", "coordinates": [96.215545, 16.815396]}, "properties": {"name": "Thaketa (STEAM TURBINE)", "alt_name": "", "type": "CCGT", "status": "E", "status2": "", "gen_bus_id": 20, "conn_to": "Yangon", "INC": "YES", "index": 138}}, {"type": "Feature", "geometry": {"type": "Point", "coordinates": [96.225056, 16.822306]}, "properties": {"name": "Thaketa (U Energy)", "alt_name": "", "type": "CCGT", "status": "E", "status2": "", "gen_bus_id": 20, "conn_to": "Yangon", "INC": "YES", "index": 139}}, {"type": "Feature", "geometry": {"type": "Point", "coordinates": [97.667417, 16.461806]}, "properties": {"name": "Mawlamying (ML) A", "alt_name": "", "type": "CCGT", "status": "E", "status2": "", "gen_bus_id": 24, "conn_to": "Mawlamyaing", "INC": "YES", "index": 140}}, {"type": "Feature", "geometry": {"type": "Point", "coordinates": [97.667417, 16.481806]}, "properties": {"name": "Mawlamying (ML) B", "alt_name": "", "type": "CCGT", "status": "E", "status2": "", "gen_bus_id": 24, "conn_to": "Mawlamyaing", "INC": "YES", "index": 141}}, {"type": "Feature", "geometry": {"type": "Point", "coordinates": [95.391917, 21.432306]}, "properties": {"name": "Myingyan (Sembcrop)", "alt_name": "", "type": "CCGT", "status": "E", "status2": "", "gen_bus_id": 3, "conn_to": "Thapyewa", "INC": "YES", "index": 142}}, {"type": "Feature", "geometry": {"type": "Point", "coordinates": [97.408278, 16.963556]}, "properties": {"name": "Thaton (WB) (STEAM TURBINE)", "alt_name": "", "type": "CCGT", "status": "E", "status2": "", "gen_bus_id": 23, "conn_to": "Thaton", "INC": "YES", "index": 143}}, {"type": "Feature", "geometry": {"type": "Point", "coordinates": [96.701861, 20.432139]}, "properties": {"name": "Tigit (TIKYIT)", "alt_name": "", "type": "Coal", "status": "E", "status2": "", "gen_bus_id": 30, "conn_to": "132kV-bus", "INC": "YES", "index": 144}}, {"type": "Feature", "geometry": {"type": "Point", "coordinates": [94.679639, 20.053444]}, "properties": {"name": "MINBU", "alt_name": "", "type": "PV", "status": "E", "status2": "", "gen_bus_id": 13, "conn_to": "Mann", "INC": "YES", "index": 145}}, {"type": "Feature", "geometry": {"type": "Point", "coordinates": [94.823611, 20.866667]}, "properties": {"name": "Chauk", "alt_name": "", "type": "PV", "status": "P/C", "status2": "", "gen_bus_id": 13, "conn_to": "Mann", "INC": "YES", "index": 146}}, {"type": "Feature", "geometry": {"type": "Point", "coordinates": [95.522222, 19.995833]}, "properties": {"name": "Taungdwingyi", "alt_name": "", "type": "PV", "status": "P/C", "status2": "", "gen_bus_id": 6, "conn_to": "Taungdwingyi", "INC": "YES", "index": 147}}, {"type": "Feature", "geometry": {"type": "Point", "coordinates": [94.691525, 20.850486]}, "properties": {"name": "Ta Nyaung", "alt_name": "", "type": "PV", "status": "P/C", "status2": "", "gen_bus_id": 13, "conn_to": "Mann", "INC": "YES", "index": 148}}, {"type": "Feature", "geometry": {"type": "Point", "coordinates": [95.094167, 21.356944]}, "properties": {"name": "Buddhakone", "alt_name": "", "type": "PV", "status": "P/C", "status2": "", "gen_bus_id": 30, "conn_to": "132kV-bus", "INC": "YES", "index": 149}}, {"type": "Feature", "geometry": {"type": "Point", "coordinates": [94.416111, 21.520833]}, "properties": {"name": "Chaungku", "alt_name": "", "type": "PV", "status": "P/C", "status2": "", "gen_bus_id": 29, "conn_to": "Chaunguu", "INC": "YES", "index": 150}}, {"type": "Feature", "geometry": {"type": "Point", "coordinates": [94.802967, 21.187667]}, "properties": {"name": "Kyungchaung", "alt_name": "", "type": "PV", "status": "P/C", "status2": "", "gen_bus_id": 13, "conn_to": "Mann", "INC": "YES", "index": 151}}, {"type": "Feature", "geometry": {"type": "Point", "coordinates": [96.153763, 21.669918]}, "properties": {"name": "Belin", "alt_name": "", "type": "PV", "status": "P/C", "status2": "", "gen_bus_id": 25, "conn_to": "Mandalay", "INC": "YES", "index": 152}}, {"type": "Feature", "geometry": {"type": "Point", "coordinates": [96.052392, 22.554575]}, "properties": {"name": "Letpanhla", "alt_name": "", "type": "PV", "status": "P/C", "status2": "", "gen_bus_id": 25, "conn_to": "Mandalay", "INC": "YES", "index": 153}}, {"type": "Feature", "geometry": {"type": "Point", "coordinates": [95.3925, 21.4325]}, "properties": {"name": "Myingyan", "alt_name": "", "type": "PV", "status": "P/C", "status2": "", "gen_bus_id": 3, "conn_to": "Thapyewa", "INC": "YES", "index": 154}}, {"type": "Feature", "geometry": {"type": "Point", "coordinates": [96.055844, 20.859389]}, "properties": {"name": "Tharzi", "alt_name": "", "type": "PV", "status": "P/C", "status2": "", "gen_bus_id": 3, "conn_to": "Thapyewa", "INC": "YES", "index": 155}}, {"type": "Feature", "geometry": {"type": "Point", "coordinates": [95.974722, 20.990278]}, "properties": {"name": "Thapyaywa", "alt_name": "", "type": "PV", "status": "P/C", "status2": "", "gen_bus_id": 3, "conn_to": "Thapyewa", "INC": "YES", "index": 156}}, {"type": "Feature", "geometry": {"type": "Point", "coordinates": [96.444444, 18.903611]}, "properties": {"name": "Taungoo", "alt_name": "", "type": "PV", "status": "P/C", "status2": "", "gen_bus_id": 16, "conn_to": "Taungoo", "INC": "YES", "index": 157}}, {"type": "Feature", "geometry": {"type": "Point", "coordinates": [96.63625, 18.089583]}, "properties": {"name": "Tharyargone", "alt_name": "", "type": "PV", "status": "P/C", "status2": "", "gen_bus_id": 18, "conn_to": "Kun", "INC": "YES", "index": 158}}, {"type": "Feature", "geometry": {"type": "Point", "coordinates": [96.265944, 19.425528]}, "properties": {"name": "Thephyu", "alt_name": "", "type": "PV", "status": "P/C", "status2": "", "gen_bus_id": 5, "conn_to": "Naypyitaw", "INC": "YES", "index": 159}}, {"type": "Feature", "geometry": {"type": "Point", "coordinates": [96.518167, 17.336306]}, "properties": {"name": "Kamarnat", "alt_name": "", "type": "PV", "status": "P/C", "status2": "", "gen_bus_id": 21, "conn_to": "Kamanat", "INC": "YES", "index": 160}}, {"type": "Feature", "geometry": {"type": "Point", "coordinates": [95.731306, 17.997556]}, "properties": {"name": "Minhla", "alt_name": "", "type": "PV", "status": "P/C", "status2": "", "gen_bus_id": 14, "conn_to": "Minhla", "INC": "YES", "index": 161}}, {"type": "Feature", "geometry": {"type": "Point", "coordinates": [94.996618, 18.669076]}, "properties": {"name": "Oakshitpin", "alt_name": "", "type": "PV", "status": "P/C", "status2": "", "gen_bus_id": 8, "conn_to": "Oakshitpin", "INC": "YES", "index": 162}}, {"type": "Feature", "geometry": {"type": "Point", "coordinates": [95.229042, 18.727047]}, "properties": {"name": "Shwedaung", "alt_name": "", "type": "PV", "status": "P/C", "status2": "", "gen_bus_id": 7, "conn_to": "Shwedaung", "INC": "YES", "index": 163}}, {"type": "Feature", "geometry": {"type": "Point", "coordinates": [95.110556, 22.150222]}, "properties": {"name": "Aungchanthar", "alt_name": "", "type": "PV", "status": "P/C", "status2": "", "gen_bus_id": 30, "conn_to": "132kV-bus", "INC": "YES", "index": 164}}, {"type": "Feature", "geometry": {"type": "Point", "coordinates": [95.741514, 23.067556]}, "properties": {"name": "Ngapyawdine", "alt_name": "", "type": "PV", "status": "P/C", "status2": "", "gen_bus_id": 25, "conn_to": "Mandalay", "INC": "YES", "index": 165}}, {"type": "Feature", "geometry": {"type": "Point", "coordinates": [95.103333, 22.104444]}, "properties": {"name": "Nyaungpingyi", "alt_name": "", "type": "PV", "status": "P/C", "status2": "", "gen_bus_id": 30, "conn_to": "132kV-bus", "INC": "YES", "index": 166}}, {"type": "Feature", "geometry": {"type": "Point", "coordinates": [95.877222, 21.950556]}, "properties": {"name": "Ohntaw", "alt_name": "", "type": "PV", "status": "P/C", "status2": "", "gen_bus_id": 25, "conn_to": "Mandalay", "INC": "YES", "index": 167}}, {"type": "Feature", "geometry": {"type": "Point", "coordinates": [96.054819, 16.999097]}, "properties": {"name": "Wartaya", "alt_name": "", "type": "PV", "status": "P/C", "status2": "", "gen_bus_id": 26, "conn_to": "Hlaingthaya", "INC": "YES", "index": 168}}, {"type": "Feature", "geometry": {"type": "Point", "coordinates": [96.081389, 19.795278]}, "properties": {"name": "Nay Pyi Taw (1)", "alt_name": "", "type": "PV", "status": "P/C", "status2": "", "gen_bus_id": 5, "conn_to": "Naypyitaw", "INC": "YES", "index": 169}}, {"type": "Feature", "geometry": {"type": "Point", "coordinates": [96.07025, 19.788778]}, "properties": {"name": "Nay Pyi Taw (2)", "alt_name": "", "type": "PV", "status": "P/C", "status2": "", "gen_bus_id": 5, "conn_to": "Naypyitaw", "INC": "YES", "index": 170}}, {"type": "Feature", "geometry": {"type": "Point", "coordinates": [96.254844, 20.003808]}, "properties": {"name": "Shwemyo", "alt_name": "", "type": "PV", "status": "P/C", "status2": "", "gen_bus_id": 5, "conn_to": "Naypyitaw", "INC": "YES", "index": 171}}, {"type": "Feature", "geometry": {"type": "Point", "coordinates": [94.72351, 16.88174]}, "properties": {"name": "Pathein", "alt_name": "", "type": "PV", "status": "P/C", "status2": "", "gen_bus_id": 15, "conn_to": "Athoke", "INC": "YES", "index": 172}}, {"type": "Feature", "geometry": {"type": "Point", "coordinates": [95.7055, 16.467528]}, "properties": {"name": "Kyaiklat", "alt_name": "", "type": "PV", "status": "P/C", "status2": "", "gen_bus_id": 27, "conn_to": "Kyaiklatt", "INC": "YES", "index": 173}}, {"type": "Feature", "geometry": {"type": "Point", "coordinates": [95.090028, 17.184528]}, "properties": {"name": "Athoke", "alt_name": "", "type": "PV", "status": "P/C", "status2": "", "gen_bus_id": 15, "conn_to": "Athoke", "INC": "YES", "index": 174}}, {"type": "Feature", "geometry": {"type": "Point", "coordinates": [95.307897, 18.273456]}, "properties": {"name": "Myanaung", "alt_name": "", "type": "PV", "status": "P/C", "status2": "", "gen_bus_id": 8, "conn_to": "Oakshitpin", "INC": "YES", "index": 175}}, {"type": "Feature", "geometry": {"type": "Point", "coordinates": [95.95952, 21.97928]}, "properties": {"name": "Wind-1", "alt_name": "", "type": "Wind", "status": "P/C", "status2": "", "gen_bus_id": 25, "conn_to": "Mandalay", "INC": "YES", "index": 176}}, {"type": "Feature", "geometry": {"type": "Point", "coordinates": [95.9211, 20.9485]}, "properties": {"name": "Wind-2", "alt_name": "", "type": "Wind", "status": "P/C", "status2": "", "gen_bus_id": 3, "conn_to": "Thapyewa", "INC": "YES", "index": 177}}, {"type": "Feature", "geometry": {"type": "Point", "coordinates": [94.86943, 20.16996]}, "properties": {"name": "Wind-3", "alt_name": "", "type": "Wind", "status": "P/C", "status2": "", "gen_bus_id": 13, "conn_to": "Mann", "INC": "YES", "index": 178}}, {"type": "Feature", "geometry": {"type": "Point", "coordinates": [94.85, 16.86]}, "properties": {"name": "Wind-4", "alt_name": "", "type": "Wind", "status": "P/C", "status2": "", "gen_bus_id": 15, "conn_to": "Athoke", "INC": "YES", "index": 179}}, {"type": "Feature", "geometry": {"type": "Point", "coordinates": [96.30442, 16.70026]}, "properties": {"name": "Wind-5", "alt_name": "", "type": "Wind", "status": "P/C", "status2": "", "gen_bus_id": 20, "conn_to": "Yangon", "INC": "YES", "index": 180}}]}