{"type": "FeatureCollection", "features": [{"type": "Feature", "geometry": {"type": "Point", "coordinates": [97.419111, 22.923306]}, "properties": {"name": "Mansan", "peak_load": 177.818787, "PD": 177.818787, "BUS_TYPE": 2, "tot_PG": 0.0, "tot_QG": 0.0, "Status": "E", "Voltage": 230, "INC": "YES", "index": 1}}, {"type": "Feature", "geometry": {"type": "Point", "coordinates": [97.506, 23.698]}, "properties": {"name": "Shweli", "peak_load": 0.0, "PD": 0.0, "BUS_TYPE": 2, "tot_PG": 390.76, "tot_QG": 25.26, "Status": "E", "Voltage": 230, "INC": "YES", "index": 2}}, {"type": "Feature", "geometry": {"type": "Point", "coordinates": [95.921508, 20.208405]}, "properties": {"name": "Thapyewa", "peak_load": 150.907944, "PD": 150.907944, "BUS_TYPE": 2, "tot_PG": 133.1, "tot_QG": -15.040000000000001, "Status": "E", "Voltage": 230, "INC": "YES", "index": 3}}, {"type": "Feature", "geometry": {"type": "Point", "coordinates": [96.474077, 21.675196]}, "properties": {"name": "Yeywa", "peak_load": 0.0, "PD": 0.0, "BUS_TYPE": 2, "tot_PG": 735.5899999999999, "tot_QG": 64.36, "Status": "E", "Voltage": 230, "INC": "YES", "index": 4}}, {"type": "Feature", "geometry": {"type": "Point", "coordinates": [96.268205, 19.762668]}, "properties": {"name": "Naypyitaw", "peak_load": 422.70466, "PD": 422.70466, "BUS_TYPE": 2, "tot_PG": 389.43, "tot_QG": 156.35000000000002, "Status": "E", "Voltage": 230, "INC": "YES", "index": 5}}, {"type": "Feature", "geometry": {"type": "Point", "coordinates": [95.522556, 19.996167]}, "properties": {"name": "Taungdwingyi", "peak_load": 0.0, "PD": 0.0, "BUS_TYPE": 2, "tot_PG": 0.0, "tot_QG": 0.0, "Status": "E", "Voltage": 230, "INC": "YES", "index": 6}}, {"type": "Feature", "geometry": {"type": "Point", "coordinates": [95.230278, 18.727333]}, "properties": {"name": "Shwedaung", "peak_load": 179.194389, "PD": 179.194389, "BUS_TYPE": 2, "tot_PG": 47.52, "tot_QG": 3.1, "Status": "E", "Voltage": 230, "INC": "YES", "index": 7}}, {"type": "Feature", "geometry": {"type": "Point", "coordinates": [94.995935, 18.66931]}, "properties": {"name": "Oakshitpin", "peak_load": 66.423018, "PD": 66.423018, "BUS_TYPE": 2, "tot_PG": 0.0, "tot_QG": 0.0, "Status": "E", "Voltage": 230, "INC": "YES", "index": 8}}, {"type": "Feature", "geometry": {"type": "Point", "coordinates": [94.294833, 18.758583]}, "properties": {"name": "Taungup", "peak_load": 28.619024, "PD": 28.619024, "BUS_TYPE": 2, "tot_PG": 0.0, "tot_QG": 0.0, "Status": "E", "Voltage": 230, "INC": "YES", "index": 9}}, {"type": "Feature", "geometry": {"type": "Point", "coordinates": [93.496778, 19.402361]}, "properties": {"name": "Kyaukphyu", "peak_load": 0.0, "PD": 0.0, "BUS_TYPE": 2, "tot_PG": 38.08, "tot_QG": -69.62, "Status": "E", "Voltage": 230, "INC": "YES", "index": 10}}, {"type": "Feature", "geometry": {"type": "Point", "coordinates": [94.042323, 19.795327]}, "properties": {"name": "Ann", "peak_load": 70.119408, "PD": 70.119408, "BUS_TYPE": 1, "tot_PG": 0, "tot_QG": 0, "Status": "E", "Voltage": 230, "INC": "YES", "index": 11}}, {"type": "Feature", "geometry": {"type": "Point", "coordinates": [93.014056, 20.339056]}, "properties": {"name": "Ponnakyun", "peak_load": 62.614615, "PD": 62.614615, "BUS_TYPE": 2, "tot_PG": 0.0, "tot_QG": 0.0, "Status": "E", "Voltage": 230, "INC": "YES", "index": 12}}, {"type": "Feature", "geometry": {"type": "Point", "coordinates": [94.839861, 20.177895]}, "properties": {"name": "Mann", "peak_load": 0.0, "PD": 0.0, "BUS_TYPE": 2, "tot_PG": 36.91, "tot_QG": -12.73, "Status": "E", "Voltage": 230, "INC": "YES", "index": 13}}, {"type": "Feature", "geometry": {"type": "Point", "coordinates": [95.856319, 17.58718]}, "properties": {"name": "Minhla", "peak_load": 636.89929, "PD": 636.89929, "BUS_TYPE": 2, "tot_PG": 0.0, "tot_QG": 0.0, "Status": "E", "Voltage": 230, "INC": "YES", "index": 14}}, {"type": "Feature", "geometry": {"type": "Point", "coordinates": [94.967945, 17.021805]}, "properties": {"name": "Athoke", "peak_load": 230.996405, "PD": 230.996405, "BUS_TYPE": 2, "tot_PG": 0.0, "tot_QG": 0.0, "Status": "E", "Voltage": 230, "INC": "YES", "index": 15}}, {"type": "Feature", "geometry": {"type": "Point", "coordinates": [96.420366, 18.905409]}, "properties": {"name": "Taungoo", "peak_load": 0.0, "PD": 0.0, "BUS_TYPE": 2, "tot_PG": 125.17, "tot_QG": 19.850000000000005, "Status": "E", "Voltage": 230, "INC": "YES", "index": 16}}, {"type": "Feature", "geometry": {"type": "Point", "coordinates": [97.358, 19.557]}, "properties": {"name": "Lawpita", "peak_load": 0.0, "PD": 0.0, "BUS_TYPE": 2, "tot_PG": 148.65, "tot_QG": -39.23, "Status": "E", "Voltage": 230, "INC": "YES", "index": 17}}, {"type": "Feature", "geometry": {"type": "Point", "coordinates": [96.387011, 18.337264]}, "properties": {"name": "Kun", "peak_load": 169.678142, "PD": 169.678142, "BUS_TYPE": 2, "tot_PG": 88.49000000000001, "tot_QG": -23.259999999999998, "Status": "E", "Voltage": 230, "INC": "YES", "index": 18}}, {"type": "Feature", "geometry": {"type": "Point", "coordinates": [96.935001, 17.970227]}, "properties": {"name": "Shwekyin", "peak_load": 0.0, "PD": 0.0, "BUS_TYPE": 2, "tot_PG": 50.19, "tot_QG": 13.08, "Status": "E", "Voltage": 230, "INC": "YES", "index": 19}}, {"type": "Feature", "geometry": {"type": "Point", "coordinates": [96.23273, 16.829422]}, "properties": {"name": "Yangon", "peak_load": 2048.996265, "PD": 2048.996265, "BUS_TYPE": 2, "tot_PG": 413.18999999999994, "tot_QG": 33.31, "Status": "E", "Voltage": 230, "INC": "YES", "index": 20}}, {"type": "Feature", "geometry": {"type": "Point", "coordinates": [96.19898, 17.755818]}, "properties": {"name": "Kamanat", "peak_load": 178.82702, "PD": 178.82702, "BUS_TYPE": 2, "tot_PG": 17.16, "tot_QG": 0.47, "Status": "E", "Voltage": 230, "INC": "YES", "index": 21}}, {"type": "Feature", "geometry": {"type": "Point", "coordinates": [96.878833, 17.517722]}, "properties": {"name": "Sittaung", "peak_load": 46.120873, "PD": 46.120873, "BUS_TYPE": 1, "tot_PG": 0, "tot_QG": 0, "Status": "E", "Voltage": 230, "INC": "YES", "index": 22}}, {"type": "Feature", "geometry": {"type": "Point", "coordinates": [97.408278, 16.963556]}, "properties": {"name": "Thaton", "peak_load": 0.0, "PD": 0.0, "BUS_TYPE": 2, "tot_PG": 16.95, "tot_QG": -15.9, "Status": "E", "Voltage": 230, "INC": "YES", "index": 23}}, {"type": "Feature", "geometry": {"type": "Point", "coordinates": [97.667417, 16.471806]}, "properties": {"name": "Mawlamyaing", "peak_load": 0.0, "PD": 0.0, "BUS_TYPE": 2, "tot_PG": 81.63, "tot_QG": -2.5999999999999996, "Status": "E", "Voltage": 230, "INC": "YES", "index": 24}}, {"type": "Feature", "geometry": {"type": "Point", "coordinates": [96.07392, 21.859722]}, "properties": {"name": "Mandalay", "peak_load": 1254.616553, "PD": 1254.616553, "BUS_TYPE": 2, "tot_PG": 0.0, "tot_QG": 0.0, "Status": "E", "Voltage": 230, "INC": "YES", "index": 25}}, {"type": "Feature", "geometry": {"type": "Point", "coordinates": [96.088, 16.843]}, "properties": {"name": "Hlaingthaya", "peak_load": 1281.551373, "PD": 1281.551373, "BUS_TYPE": 2, "tot_PG": 276.58, "tot_QG": 32.99, "Status": "E", "Voltage": 230, "INC": "YES", "index": 26}}, {"type": "Feature", "geometry": {"type": "Point", "coordinates": [95.704611, 16.468083]}, "properties": {"name": "Kyaiklatt", "peak_load": 230.996405, "PD": 230.996405, "BUS_TYPE": 2, "tot_PG": 0.0, "tot_QG": 0.0, "Status": "E", "Voltage": 230, "INC": "YES", "index": 27}}, {"type": "Feature", "geometry": {"type": "Point", "coordinates": [95.106611, 22.097167]}, "properties": {"name": "Nyaungbingyi", "peak_load": 106.019201, "PD": 106.019201, "BUS_TYPE": 1, "tot_PG": 0, "tot_QG": 0, "Status": "E", "Voltage": 230, "INC": "YES", "index": 28}}, {"type": "Feature", "geometry": {"type": "Point", "coordinates": [94.036944, 21.992222]}, "properties": {"name": "Chaunguu", "peak_load": 0.0, "PD": 0.0, "BUS_TYPE": 2, "tot_PG": 1.38, "tot_QG": 18.88, "Status": "E", "Voltage": 230, "INC": "YES", "index": 29}}, {"type": "Feature", "geometry": {"type": "Point", "coordinates": [94.9813, 21.2121]}, "properties": {"name": "132kV-bus", "peak_load": 2121.896627, "PD": 2121.896627, "BUS_TYPE": 3, "tot_PG": 595.2199999999999, "tot_QG": 122.22999999999999, "Status": "A", "Voltage": 132, "INC": "YES", "index": 30}}, {"type": "Feature", "geometry": {"type": "Point", "coordinates": [98.311, 14.0503]}, "properties": {"name": "Kabauk", "peak_load": 0.0, "PD": 0.0, "BUS_TYPE": 2, "tot_PG": 0, "tot_QG": 0, "Status": "P", "Voltage": 230, "INC": "YES", "index": 31}}, {"type": "Feature", "geometry": {"type": "Point", "coordinates": [98.8223, 12.3336]}, "properties": {"name": "Tanintharyi", "peak_load": 0.0, "PD": 0.0, "BUS_TYPE": 2, "tot_PG": 0, "tot_QG": 0, "Status": "P", "Voltage": 230, "INC": "YES", "index": 32}}, {"type": "Feature", "geometry": {"type": "Point", "coordinates": [96.3508, 24.265]}, "properties": {"name": "Nabar", "peak_load": 0.0, "PD": 0.0, "BUS_TYPE": 2, "tot_PG": 0, "tot_QG": 0, "Status": "P", "Voltage": 230, "INC": "YES", "index": 33}}, {"type": "Feature", "geometry": {"type": "Point", "coordinates": [97.2767, 24.3611]}, "properties": {"name": "Bhamo", "peak_load": 0.0, "PD": 0.0, "BUS_TYPE": 2, "tot_PG": 0, "tot_QG": 0, "Status": "P", "Voltage": 230, "INC": "YES", "index": 34}}, {"type": "Feature", "geometry": {"type": "Point", "coordinates": [97.9229, 25.8753]}, "properties": {"name": "Chipwi", "peak_load": 0.0, "PD": 0.0, "BUS_TYPE": 2, "tot_PG": 0, "tot_QG": 0, "Status": "P", "Voltage": 230, "INC": "YES", "index": 35}}, {"type": "Feature", "geometry": {"type": "Point", "coordinates": [98.516, 26.6179]}, "properties": {"name": "Pisa", "peak_load": 0.0, "PD": 0.0, "BUS_TYPE": 2, "tot_PG": 0, "tot_QG": 0, "Status": "P", "Voltage": 230, "INC": "YES", "index": 36}}, {"type": "Feature", "geometry": {"type": "Point", "coordinates": [99.5046, 21.3567]}, "properties": {"name": "Keng Tong", "peak_load": 0.0, "PD": 0.0, "BUS_TYPE": 2, "tot_PG": 0, "tot_QG": 0, "Status": "P", "Voltage": 230, "INC": "YES", "index": 37}}, {"type": "Feature", "geometry": {"type": "Point", "coordinates": [97.669, 20.674]}, "properties": {"name": "Namsang", "peak_load": 0.0, "PD": 0.0, "BUS_TYPE": 2, "tot_PG": 0, "tot_QG": 0, "Status": "P", "Voltage": 230, "INC": "YES", "index": 38}}]}